[
    {
        "name": "FLOWERS BAKERY STORE 50000144",
        "lon": "-84.40409769791005",
        "lat": "33.750369750000004",
        "address": "165 Northside Dr SW Atlanta GA 30313"
    },
    {
        "name": "BP",
        "lon": "-84.388953",
        "lat": "33.770585",
        "address": "610 Spring St NW Atlanta GA 30308"
    },
    {
        "name": "BP Convenience Store",
        "lon": "-84.381014",
        "lat": "33.8735021",
        "address": "8763 Roswell Rd Atlanta GA 30350"
    },
    {
        "name": "BP FOOD MART",
        "lon": "-84.37204748837209",
        "lat": "33.764502",
        "address": "356 Boulevard NE Atlanta GA 30312"
    },
    {
        "name": "BP FOOD MART",
        "lon": "-84.49255017395214",
        "lat": "33.6231482",
        "address": "3165 Roosevelt Hwy Atlanta GA 30349"
    },
    {
        "name": "BP Food Mart",
        "lon": "-84.446005",
        "lat": "33.774312",
        "address": "1400 Donald Lee Hollowell Pkwy NW Atlanta GA 30318"
    },
    {
        "name": "Bp Food Mart",
        "lon": "-84.37960975",
        "lat": "33.746779874999994",
        "address": "245 Memorial Dr Se Atlanta GA 30312"
    },
    {
        "name": "Bp Food Mart",
        "lon": "-84.381014",
        "lat": "33.8735021",
        "address": "5995 Roswell Rd Atlanta GA 30328"
    },
    {
        "name": "Bp Food Mart",
        "lon": "-84.3821321",
        "lat": "33.7728591",
        "address": "160 Ponce de Leon Ave NE Atlanta GA 30308"
    },
    {
        "name": "Bp Food Mart",
        "lon": "-84.446005",
        "lat": "33.774312",
        "address": "720 Donald Lee Hollowell Pkwy NW Atlanta GA 30318"
    },
    {
        "name": "BP Food Shop",
        "lon": "-84.34970979828435",
        "lat": "33.72451025",
        "address": "1111 Moreland Ave Se Atlanta GA 30316"
    },
    {
        "name": "BP Gas Station",
        "lon": "-84.32384404347826",
        "lat": "33.75212995652174",
        "address": "1989 Hosea L Williams Dr SE Atlanta GA 30317"
    },
    {
        "name": "Chevron / Sydney Food Mart 138",
        "lon": "-84.36694805503049",
        "lat": "33.823035399999995",
        "address": "639 Morosgo Dr NE Atlanta GA 30324"
    },
    {
        "name": "CHEVRON FOOD MART",
        "lon": "-84.39497137162162",
        "lat": "33.68102939864865",
        "address": "221B Cleveland Ave SW Atlanta GA 30315"
    },
    {
        "name": "CHEVRON FOOD MART",
        "lon": "-84.40795629629629",
        "lat": "33.721611555555555",
        "address": "1217 Metropolitan Pkwy SW Atlanta GA 30310"
    },
    {
        "name": "CHEVRON FOOD MART",
        "lon": "-84.44411830925307",
        "lat": "33.71108545",
        "address": "1722 Campbellton Rd SW Atlanta GA 30311"
    },
    {
        "name": "CHEVRON FOOD MART",
        "lon": "-84.548125",
        "lat": "33.5980454",
        "address": "4891 Roosevelt Hwy Atlanta GA 30349"
    },
    {
        "name": "Chevron Food Mart",
        "lon": "-84.381014",
        "lat": "33.8735021",
        "address": "5300 Roswell Rd Atlanta GA 30342"
    },
    {
        "name": "Chevron Food Mart",
        "lon": "-84.52982621020709",
        "lat": "33.764744300000004",
        "address": "4340 Fulton Industrial Blvd SW Atlanta GA 30336"
    },
    {
        "name": "CHEVRON FOOD MART",
        "lon": "-84.3686163",
        "lat": "33.7445484",
        "address": "371 Boulevard SE Atlanta GA 30312"
    },
    {
        "name": "Chevron Food Mart",
        "lon": "-84.408072",
        "lat": "33.74069",
        "address": "556 Northside Dr SW Atlanta GA 30310"
    },
    {
        "name": "Chevron Food Mart",
        "lon": "-84.38717894444444",
        "lat": "33.79357244444444",
        "address": "1521 Peachtree St Ne Atlanta GA 30309"
    },
    {
        "name": "Chevron Food Mart",
        "lon": "-84.4251963",
        "lat": "33.7182043",
        "address": "4485 Campbellton Rd SW Atlanta GA 30331"
    },
    {
        "name": "Chevron Food Mart",
        "lon": "-84.3501406881305",
        "lat": "33.7161025",
        "address": "1401 Moreland Ave Se Atlanta GA 30316"
    },
    {
        "name": "Chevron Food Mart",
        "lon": "-84.375346",
        "lat": "33.772342",
        "address": "180 Ponce De Leon Ave Ne Atlanta GA 30308"
    },
    {
        "name": "Chevron Food Mart",
        "lon": "-84.46788486079399",
        "lat": "33.751729100000006",
        "address": "2456 Martin Luther King Jr Dr Sw Atlanta GA 30311"
    },
    {
        "name": "Chevron Food Mart",
        "lon": "-84.38034145608498",
        "lat": "33.70828915",
        "address": "1683 Lakewood Ave Se Atlanta GA 30315"
    },
    {
        "name": "Chevron Food Mart",
        "lon": "-84.4749177807916",
        "lat": "33.6227998",
        "address": "4875 Old National Hwy Atlanta GA 30337"
    },
    {
        "name": "Chevron Food Mart",
        "lon": "-84.408327549711",
        "lat": "33.6864320913273",
        "address": "2477 Metropolitan Pkwy SW Atlanta GA 30315"
    },
    {
        "name": "Chevron Park and Food 372",
        "lon": "-84.34958142429221",
        "lat": "33.7645362",
        "address": "372 Moreland Ave NE Atlanta GA 30307"
    },
    {
        "name": "Circle K 142",
        "lon": "-84.43433858466373",
        "lat": "33.737449795747956",
        "address": "1450 Donnelly Ave SW Atlanta GA 30310"
    },
    {
        "name": "Circle K 158",
        "lon": "-84.3925759",
        "lat": "33.69921",
        "address": "100 Lakewood Way SW Atlanta GA 30315"
    },
    {
        "name": "Circle K 181",
        "lon": "-84.47478401437421",
        "lat": "33.622093199999995",
        "address": "4903 Old National Hwy Atlanta GA 30337"
    },
    {
        "name": "Circle K 183",
        "lon": "-84.4953964085183",
        "lat": "33.65510545",
        "address": "3241 Camp Creek Pkwy Atlanta GA 30344"
    },
    {
        "name": "Citgo",
        "lon": "-84.39239361073825",
        "lat": "33.6666020671141",
        "address": "3556 Empire Blvd Sw Atlanta GA 30354"
    },
    {
        "name": "Citgo Food Mart",
        "lon": "-84.446005",
        "lat": "33.774312",
        "address": "1990 Donald Lee Hollowell Pkwy NW Atlanta GA 30318"
    },
    {
        "name": "CITGO FOOD MART",
        "lon": "-84.4859657166569",
        "lat": "33.6965629",
        "address": "2989 Campbellton Rd SW Atlanta GA 30311"
    },
    {
        "name": "Citgo Food Mart",
        "lon": "-84.4251963",
        "lat": "33.7182043",
        "address": "5225 Campbellton Rd Sw Atlanta GA 30331"
    },
    {
        "name": "Citgo Food Mart",
        "lon": "-84.41034609985022",
        "lat": "33.681511900000004",
        "address": "655 Cleveland Ave Sw Atlanta GA 30315"
    },
    {
        "name": "Citgo Food Mart",
        "lon": "-84.446005",
        "lat": "33.774312",
        "address": "2685 Donald Lee Hollowell Pkwy NW Atlanta GA 30318"
    },
    {
        "name": "Citgo Mini Mart",
        "lon": "-84.42450242195098",
        "lat": "33.81136413520674",
        "address": "1209 Collier Rd NW Atlanta GA 30318"
    },
    {
        "name": "Citgo Roosevelt",
        "lon": "-84.50590952826187",
        "lat": "33.621612049999996",
        "address": "3565 Roosevelt Hwy Atlanta GA 30349"
    },
    {
        "name": "Exxon",
        "lon": "-84.40816856550325",
        "lat": "33.72318525",
        "address": "1163 Metropolitan Pkwy Sw Atlanta GA 30310"
    },
    {
        "name": "Exxon Delowe Food Mart",
        "lon": "-84.45771729072916",
        "lat": "33.705829050000006",
        "address": "1801 Delowe Dr SW Atlanta GA 30311"
    },
    {
        "name": "Exxon Food Mart",
        "lon": "-84.34958414963182",
        "lat": "33.746861749999994",
        "address": "247 Moreland Ave Se Atlanta GA 30316"
    },
    {
        "name": "Exxon Food Mart",
        "lon": "-84.53284596087786",
        "lat": "33.6068221",
        "address": "4410 Roosevelt Hwy Atlanta GA 30349"
    },
    {
        "name": "Exxon Food Mart",
        "lon": "-84.38487298468182",
        "lat": "33.7026097",
        "address": "1959 Lakewood Ave SE Atlanta GA 30315"
    },
    {
        "name": "EZ Market",
        "lon": "-84.4087488",
        "lat": "33.773822",
        "address": "1545 Northside Dr Nw Atlanta GA 30318"
    },
    {
        "name": "Ez Market Texaco",
        "lon": "-84.4076988",
        "lat": "33.6969238",
        "address": "2100 Metropolitan Pkwy SW Atlanta GA 30315"
    },
    {
        "name": "EZ SHOPPER",
        "lon": "-84.4930723076923",
        "lat": "33.75264930769231",
        "address": "3235 Martin Luther King Jr Dr SW Atlanta GA 30311"
    },
    {
        "name": "Food Mart",
        "lon": "-84.40137489994407",
        "lat": "33.68149845000001",
        "address": "2685 Beeler Dr SW Atlanta GA 30315"
    },
    {
        "name": "Food Mart",
        "lon": "-84.36633945861215",
        "lat": "33.6493406",
        "address": "3843 Jonesboro Rd Se Atlanta GA 30354"
    },
    {
        "name": "Food Mart",
        "lon": "-84.4318247",
        "lat": "33.6715383",
        "address": "3056 Bayard St Atlanta GA 30344"
    },
    {
        "name": "Food Mart CitCo",
        "lon": "-84.34978535",
        "lat": "33.996479050000005",
        "address": "8779 Dunwoody Pl Atlanta GA 30350"
    },
    {
        "name": "L & M SERVICE MARKET",
        "lon": "-84.37738445776782",
        "lat": "33.7760437",
        "address": "785 Argonne Ave NE Atlanta GA 30308"
    },
    {
        "name": "Marathon Food Mart",
        "lon": "-84.4366819",
        "lat": "33.7138252",
        "address": "1469 Campbellton Rd Sw Atlanta GA 30311"
    },
    {
        "name": "Murphy Express 8759",
        "lon": "-84.3928568",
        "lat": "33.6811054",
        "address": "864 Cleveland Ave Atlanta GA 30344"
    },
    {
        "name": "One Stop Shop",
        "lon": "-84.35914031406071",
        "lat": "33.708795593955514",
        "address": "840 McDonough Blvd SE Atlanta GA 30315"
    },
    {
        "name": "Onestop Convenience Store 1",
        "lon": "-84.3505078",
        "lat": "33.7645862",
        "address": "1126 Euclid Ave Ne Atlanta GA 30307"
    },
    {
        "name": "Peters Food Mart",
        "lon": "-84.32567272727273",
        "lat": "33.74729909090909",
        "address": "1895 Memorial Dr SE Atlanta GA 30317"
    },
    {
        "name": "Peters Food Mart",
        "lon": "-84.32567272727273",
        "lat": "33.74729909090909",
        "address": "1895 Memorial Dr SE Atlanta GA 30317"
    },
    {
        "name": "Pharr Food & Gas",
        "lon": "-84.37670091327107",
        "lat": "33.83666665",
        "address": "345 Pharr Rd NE Atlanta GA 30305"
    },
    {
        "name": "Pilot Travel Center 331",
        "lon": "-84.31151485000001",
        "lat": "33.685287900000006",
        "address": "2605 Bouldercrest Atlanta GA 30316"
    },
    {
        "name": "QUICK FOOD MART",
        "lon": "-84.44780415926053",
        "lat": "33.75088045",
        "address": "1977 Martin Luther King Jr Dr SW Atlanta GA 30310"
    },
    {
        "name": "Quick Pick Campbellton Foodmart",
        "lon": "-84.4579937",
        "lat": "33.706514049999996",
        "address": "2111 Campbellton Rd Sw Atlanta GA 30311"
    },
    {
        "name": "Quick Pick Food Mart",
        "lon": "-84.396534",
        "lat": "33.748958",
        "address": "215 Forsyth St SW Atlanta GA 30303"
    },
    {
        "name": "QUICK SAVE",
        "lon": "-84.40127167659446",
        "lat": "33.680716000000004",
        "address": "374 Cleveland Ave SW Atlanta GA 30315"
    },
    {
        "name": "Quick Shop 2",
        "lon": "-84.381014",
        "lat": "33.8735021",
        "address": "5000 Roswell Rd Atlanta GA 30342"
    },
    {
        "name": "Quick Stop",
        "lon": "-84.408154391766",
        "lat": "33.72095815",
        "address": "1241 Metropolitan Pkwy Sw Atlanta GA 30310"
    },
    {
        "name": "Quick Stop 3",
        "lon": "-84.4181487",
        "lat": "33.7264481",
        "address": "1974 Sylvan Rd SW Atlanta GA 30310"
    },
    {
        "name": "Quik E Mart",
        "lon": "-84.50125462836478",
        "lat": "33.722940643511265",
        "address": "3450 Cascade Road Atlanta GA 30311"
    },
    {
        "name": "Quik Mart",
        "lon": "-84.39237718918919",
        "lat": "33.75283964864865",
        "address": "48 Broad St Sw Atlanta GA 30303"
    },
    {
        "name": "Quik Trip 0832",
        "lon": "-84.41609499623897",
        "lat": "33.79983317699866",
        "address": "1678 Howell Mill Rd NW Atlanta GA 30318"
    },
    {
        "name": "Quik Trip 1700",
        "lon": "-84.38389570545843",
        "lat": "33.777874999999995",
        "address": "855 Peachtree St Atlanta GA 30308"
    },
    {
        "name": "QuikTrip 0838",
        "lon": "-84.31239608317713",
        "lat": "33.836962799999995",
        "address": "2746 Clairmont Rd NE Atlanta GA 30329"
    },
    {
        "name": "QUIKTRIP 711",
        "lon": "-84.35813005",
        "lat": "33.973025050000004",
        "address": "7884 Roswell Rd Atlanta GA 30350"
    },
    {
        "name": "QUIKTRIP 729",
        "lon": "-84.4706615570069",
        "lat": "33.86546955",
        "address": "2804 Paces Ferry Rd SE Atlanta GA 30339"
    },
    {
        "name": "QUIKTRIP 730",
        "lon": "-84.3439377849171",
        "lat": "33.990076450000004",
        "address": "8200 Dunwoody Pl Atlanta GA 30350"
    },
    {
        "name": "QUIKTRIP 744",
        "lon": "-84.36218330388128",
        "lat": "33.8254346",
        "address": "761 Sidney Marcus Blvd NE Atlanta GA 30324"
    },
    {
        "name": "QUIKTRIP 745",
        "lon": "-84.3434747",
        "lat": "33.7821009",
        "address": "1836 Briarcliff Rd NE Atlanta GA 30329"
    },
    {
        "name": "QUIKTRIP 777",
        "lon": "-84.57456584345717",
        "lat": "33.7302854",
        "address": "5705 Fulton Industrial Blvd SW Atlanta GA 30336"
    },
    {
        "name": "Race Trac 453",
        "lon": "-84.4331977",
        "lat": "33.7967414",
        "address": "2325 Marietta Blvd NW Atlanta GA 30318"
    },
    {
        "name": "Raceway Campbellton",
        "lon": "-84.4251963",
        "lat": "33.7182043",
        "address": "3580 Campbellton Rd SW Atlanta GA 30331"
    },
    {
        "name": "Sam\u2019s Mart 521",
        "lon": "-84.4078611",
        "lat": "33.7950736",
        "address": "5640 Northside Dr Atlanta GA 30328"
    },
    {
        "name": "SHELL FOOD MART",
        "lon": "-84.3492318",
        "lat": "33.744198",
        "address": "356 Moreland Ave SE Atlanta GA 30316"
    },
    {
        "name": "Shell Food Mart",
        "lon": "-84.49719930279929",
        "lat": "33.68567694166936",
        "address": "3160 Greenbriar Pkwy SW Atlanta GA 30331"
    },
    {
        "name": "Shell Food Mart",
        "lon": "-84.42632755816499",
        "lat": "33.8134838",
        "address": "2118 Defoors Ferry Rd NW Atlanta GA 30318"
    },
    {
        "name": "Shell Food Mart",
        "lon": "-84.421382",
        "lat": "33.658878",
        "address": "1338 Virginia Ave Atlanta GA 30344"
    },
    {
        "name": "Shell Food Mart",
        "lon": "-84.40816666101695",
        "lat": "33.70248384745763",
        "address": "1850 Metropolitan Pkwy Sw Atlanta GA 30315"
    },
    {
        "name": "Shell Food Mart",
        "lon": "-84.50498864543857",
        "lat": "33.62192965",
        "address": "3535 Roosevelt Hwy Atlanta GA 30349"
    },
    {
        "name": "Shell Food Mart",
        "lon": "-84.37122639546335",
        "lat": "33.773873800000004",
        "address": "486 Ponce de Leon Ave NE Atlanta GA 30308"
    },
    {
        "name": "Shell Food Mart",
        "lon": "-84.44240885008605",
        "lat": "33.659599299999996",
        "address": "1633 Virginia Ave Atlanta GA 30337"
    },
    {
        "name": "Shell Food Mart",
        "lon": "-84.502602",
        "lat": "33.776107",
        "address": "2331 Bolton Rd Nw Atlanta GA 30318"
    },
    {
        "name": "Shell Food Mart",
        "lon": "-84.35499448585577",
        "lat": "33.7171798049692",
        "address": "1420 Custer Ave SE Atlanta GA 30316"
    },
    {
        "name": "Shell Food Mart",
        "lon": "-84.49100947096377",
        "lat": "33.69259165",
        "address": "3113 Campbellton Rd Sw Atlanta GA 30311"
    },
    {
        "name": "Shell Food Mart",
        "lon": "-84.381014",
        "lat": "33.8735021",
        "address": "5866 Roswell Rd Atlanta GA 30328"
    },
    {
        "name": "Shell Food Mart",
        "lon": "-84.35087536611611",
        "lat": "33.983008749999996",
        "address": "8340 Roswell Rd Atlanta GA 30350"
    },
    {
        "name": "Shell Food Mart",
        "lon": "-84.322404",
        "lat": "33.725943",
        "address": "2000 Flat Shoals Rd SE Atlanta GA 30316"
    },
    {
        "name": "Shell Food Mart 1",
        "lon": "-84.3434747",
        "lat": "33.7821009",
        "address": "2374 Briarcliff Rd NE Atlanta GA 30329"
    },
    {
        "name": "Stop N Shop",
        "lon": "-84.428689998518",
        "lat": "33.6779968",
        "address": "2848 Veterans St Atlanta GA 30344"
    },
    {
        "name": "Stop N Shop 2",
        "lon": "-84.44567565",
        "lat": "33.6657182",
        "address": "3293 Main St Atlanta GA 30337"
    },
    {
        "name": "Texaco Food Mart",
        "lon": "-84.32639955263157",
        "lat": "33.73972364473684",
        "address": "1870 Glenwood Ave Se Atlanta GA 30316"
    },
    {
        "name": "Texaco Food Mart",
        "lon": "-84.3100012",
        "lat": "33.7150254",
        "address": "2510 Gresham Rd SE Atlanta GA 30316"
    },
    {
        "name": "Texaco Food Mart N/A",
        "lon": "-84.36026635294118",
        "lat": "33.70961735294117",
        "address": "808 McDonough Blvd SE Atlanta GA 30315"
    },
    {
        "name": "Texaco Foodmart",
        "lon": "-84.49311335262095",
        "lat": "33.653788199999994",
        "address": "3155 Camp Creek Pkwy Atlanta GA 30344"
    },
    {
        "name": "US Food Mart",
        "lon": "-84.3797227",
        "lat": "33.7073266",
        "address": "1630 Jonesboro Rd SE Atlanta GA 30315"
    },
    {
        "name": "Valero Food Mart",
        "lon": "-84.52895665360614",
        "lat": "33.76524825",
        "address": "4336 Fulton Industrial Blvd Sw Atlanta GA 30336"
    },
    {
        "name": "Valero Food Mart",
        "lon": "-84.47245730914169",
        "lat": "33.6187975",
        "address": "5022 Old National Hwy Atlanta GA 30349"
    },
    {
        "name": "WELCOME TEXACO",
        "lon": "-84.52471010703897",
        "lat": "33.6112623",
        "address": "4165 Roosevelt Hwy Atlanta GA 30349"
    },
    {
        "name": "DOLLAR GENERAL 8143",
        "lon": "-84.4251963",
        "lat": "33.7182043",
        "address": "4465 Campbellton Rd SW Atlanta GA 30331"
    },
    {
        "name": "Dollar General 12311",
        "lon": "-84.4767547194148",
        "lat": "33.65905965",
        "address": "3492 Washington Rd Atlanta GA 30344"
    },
    {
        "name": "Dollar General 13836",
        "lon": "-84.50256111213521",
        "lat": "33.757787156405676",
        "address": "3509 Martin Luther King Jr Dr SW Atlanta GA 30331"
    },
    {
        "name": "Dollar General 19003",
        "lon": "-84.46544201109637",
        "lat": "33.751205",
        "address": "2310 Martin Luther King Jr Dr SW Atlanta GA 30310"
    },
    {
        "name": "Dollar General 19011",
        "lon": "-84.4071759",
        "lat": "33.681734500000005",
        "address": "2690 Metropolitan Pkwy SW Atlanta GA 30315"
    },
    {
        "name": "Dollar General 19079",
        "lon": "-84.40970008695653",
        "lat": "33.69729314130435",
        "address": "2779 Lakewood Ave SW Atlanta GA 30315"
    },
    {
        "name": "Dollar General 19080",
        "lon": "-84.487518608703",
        "lat": "33.68964991530598",
        "address": "2975 Headland Dr SW Atlanta GA 30311"
    },
    {
        "name": "Dollar General 19083",
        "lon": "-84.381014",
        "lat": "33.8735021",
        "address": "8775 Roswell Rd Atlanta GA 30350"
    },
    {
        "name": "Dollar Tree 1157",
        "lon": "-84.40782228571429",
        "lat": "33.68163885714286",
        "address": "2685 Metropolitan Pkwy SW Atlanta GA 30315"
    },
    {
        "name": "Dollar Tree 2230",
        "lon": "-84.381014",
        "lat": "33.8735021",
        "address": "5966 Roswell Rd NE Atlanta GA 30328"
    },
    {
        "name": "Dollar Tree 5829",
        "lon": "-84.3492318",
        "lat": "33.744198",
        "address": "1326 Moreland Ave SE Atlanta GA 30316"
    },
    {
        "name": "Family Dollar 10677",
        "lon": "-84.4251963",
        "lat": "33.7182043",
        "address": "4472 Campbellton Rd SW Atlanta GA 30331"
    },
    {
        "name": "Family Dollar 11425",
        "lon": "-84.3799281002639",
        "lat": "33.70752276601931",
        "address": "1723 Lakewood Ave SE Atlanta GA 30315"
    },
    {
        "name": "Family Dollar Store 10281",
        "lon": "-84.3651347",
        "lat": "33.8140132",
        "address": "4949 Buford Hwy Atlanta GA 30341"
    },
    {
        "name": "Family Dollar Store 10676",
        "lon": "-84.4754102",
        "lat": "33.8107402",
        "address": "2001 James Jackson Pkwy NW Atlanta GA 30318"
    },
    {
        "name": "Family Dollar Store 1469",
        "lon": "-84.3336685",
        "lat": "33.74738321875",
        "address": "1655 Memorial Dr SE Atlanta GA 30317"
    },
    {
        "name": "Family Dollar Store 231",
        "lon": "-84.47197064947521",
        "lat": "33.608636649999994",
        "address": "5403 Old National Hwy Atlanta GA 30349"
    },
    {
        "name": "Family Dollar Store 2349",
        "lon": "-84.4251963",
        "lat": "33.7182043",
        "address": "3721A Campbellton Rd SW Atlanta GA 30331"
    },
    {
        "name": "Family Dollar Store 235",
        "lon": "-84.45946915855622",
        "lat": "33.705129799999995",
        "address": "2178 Campbellton Rd SW Atlanta GA 30311"
    },
    {
        "name": "Family Dollar Store 5300",
        "lon": "-84.34889559999999",
        "lat": "33.72429765",
        "address": "1104 Moreland Ave SE Atlanta GA 30316"
    },
    {
        "name": "Family Dollar Store 6030",
        "lon": "-84.446005",
        "lat": "33.774312",
        "address": "2045 Donald Lee Hollowell Pkwy NW Atlanta GA 30318"
    },
    {
        "name": "Family Dollar Store 6151",
        "lon": "-84.5024627",
        "lat": "33.757353",
        "address": "3500 Martin Luther King Jr Dr SW Atlanta GA 30331"
    },
    {
        "name": "Family Dollar Store 634",
        "lon": "-84.48702583292949",
        "lat": "33.749767399999996",
        "address": "3050 Martin Luther King Jr Dr SW Atlanta GA 30311"
    },
    {
        "name": "Family Dollar Store 6501",
        "lon": "-84.41492085028115",
        "lat": "33.772681750000004",
        "address": "824 Donald Lee Hollowell Pkwy NW Atlanta GA 30318"
    },
    {
        "name": "Family Dollar Store 716",
        "lon": "-84.35499698769446",
        "lat": "33.71712988191508",
        "address": "1410 Custer Ave SE Atlanta GA 30316"
    },
    {
        "name": "Family Dollar Store 7189",
        "lon": "-84.421382",
        "lat": "33.658878",
        "address": "1616 Virginia Ave Atlanta GA 30337"
    },
    {
        "name": "Family Dollar Store 7253",
        "lon": "-84.446005",
        "lat": "33.774312",
        "address": "2615 Donald Lee Hollowell Pkwy NW Atlanta GA 30318"
    },
    {
        "name": "Family Dollar Store 728",
        "lon": "-84.4542898",
        "lat": "33.8206385",
        "address": "2344 Marietta Blvd NW Atlanta GA 30318"
    },
    {
        "name": "Family Dollar Store 7463",
        "lon": "-84.32148547372843",
        "lat": "33.72518282608628",
        "address": "2021 Flat Shoals Rd SE Atlanta GA 30316"
    },
    {
        "name": "Roses Express 1860",
        "lon": "-84.41570866666666",
        "lat": "33.740567472222224",
        "address": "850 Oak St SW Atlanta GA 30310"
    },
    {
        "name": "Aldi 57",
        "lon": "-84.3104475471875",
        "lat": "33.85810635",
        "address": "3963 Buford Hwy NE Atlanta GA 30345"
    },
    {
        "name": "Aldi 58",
        "lon": "-84.35020352184378",
        "lat": "33.71377435",
        "address": "1461 Moreland Ave SE Atlanta GA 30316"
    },
    {
        "name": "KROGER 207",
        "lon": "-84.4578726",
        "lat": "33.872428",
        "address": "3300 Cobb Pkwy Atlanta GA 30339"
    },
    {
        "name": "KROGER 259",
        "lon": "-84.3743372",
        "lat": "33.8455819",
        "address": "3330 Piedmont Rd NE Atlanta GA 30305"
    },
    {
        "name": "KROGER 298",
        "lon": "-84.37301451062359",
        "lat": "33.80048145000001",
        "address": "1700 Monroe Dr NE Atlanta GA 30324"
    },
    {
        "name": "KROGER 313",
        "lon": "-84.381014",
        "lat": "33.8735021",
        "address": "8331 Roswell Rd Atlanta GA 30350"
    },
    {
        "name": "KROGER 318",
        "lon": "-84.35012656516146",
        "lat": "33.81743248213158",
        "address": "2205 Lavista Rd NE Atlanta GA 30329"
    },
    {
        "name": "KROGER 346",
        "lon": "-84.4125016",
        "lat": "33.8018104",
        "address": "1715 Howell Mill Rd NW Atlanta GA 30318"
    },
    {
        "name": "KROGER 364",
        "lon": "-84.40782228571429",
        "lat": "33.68163885714286",
        "address": "2685 Metropolitan Pkwy SW Atlanta GA 30315"
    },
    {
        "name": "KROGER 350",
        "lon": "-84.3823756",
        "lat": "33.8885719",
        "address": "4920 ROSWELL RD Atlanta GA 30342"
    },
    {
        "name": "KROGER 461",
        "lon": "-84.3473191",
        "lat": "33.758332",
        "address": "1225 Caroline St NE Atlanta GA 30307"
    },
    {
        "name": "KROGER 465",
        "lon": "-84.49614359763314",
        "lat": "33.72158478698225",
        "address": "3425 CASCADE RD Atlanta GA 30311"
    },
    {
        "name": "KROGER 655",
        "lon": "-84.3374369",
        "lat": "33.8040753",
        "address": "1799 BRIARCLIFF RD NE Atlanta GA 30306"
    },
    {
        "name": "Kroger 672",
        "lon": "-84.36164612495243",
        "lat": "33.74057143535809",
        "address": "800 Glenwood Ave SE Atlanta GA 30316"
    },
    {
        "name": "KROGER STORE 488",
        "lon": "-84.3492318",
        "lat": "33.744198",
        "address": "1160 Moreland Ave SE Atlanta GA 30316"
    },
    {
        "name": "KROGER STORE 462",
        "lon": "-84.48773994065127",
        "lat": "33.6883112",
        "address": "3030 HEADLAND DR SW Atlanta GA 30311"
    },
    {
        "name": "Piggly Wiggly",
        "lon": "-84.46138576188991",
        "lat": "33.6701582",
        "address": "3100 Washington Rd Atlanta GA 30344"
    },
    {
        "name": "Piggly Wiggly 77",
        "lon": "-84.3496663",
        "lat": "33.7200408",
        "address": "1257 Moreland Ave SE Atlanta GA 30316"
    },
    {
        "name": "PUBLIX 0719",
        "lon": "-84.3665494",
        "lat": "33.8483993",
        "address": "2365 Peachtree Rd NE Atlanta GA 30305"
    },
    {
        "name": "PUBLIX 0720",
        "lon": "-84.4279835",
        "lat": "33.8483406",
        "address": "1250 W Paces Ferry Rd NW Atlanta GA 30327"
    },
    {
        "name": "PUBLIX 0724",
        "lon": "-84.3546443",
        "lat": "33.7731793",
        "address": "1001 Ponce de Leon Ave NE Atlanta GA 30306"
    },
    {
        "name": "PUBLIX 0783",
        "lon": "-84.31439035294117",
        "lat": "33.74007923529412",
        "address": "2235 Glenwood Ave SE Atlanta GA 30316"
    },
    {
        "name": "PUBLIX 691",
        "lon": "-84.2570105",
        "lat": "33.8473847",
        "address": "2162 Henderson Mill Rd NE Atlanta GA 30345"
    },
    {
        "name": "PUBLIX 0468",
        "lon": "-84.381014",
        "lat": "33.8735021",
        "address": "6615 Roswell Rd NE Atlanta GA 30328"
    },
    {
        "name": "Publix 0718",
        "lon": "-84.381014",
        "lat": "33.8735021",
        "address": "4279 Roswell Rd NE Atlanta GA 30342"
    },
    {
        "name": "PUBLIX 0776",
        "lon": "-84.3694554",
        "lat": "33.8397224",
        "address": "595 PIEDMONT RD Atlanta GA 30308"
    },
    {
        "name": "PUBLIX 1010",
        "lon": "-84.3978483",
        "lat": "33.7927085",
        "address": "1380 Atlantic Dr NW Atlanta GA 30363"
    },
    {
        "name": "PUBLIX 1061",
        "lon": "-84.3875317",
        "lat": "33.7801725",
        "address": "950 W PEACHTREE ST NW Atlanta GA 30309"
    },
    {
        "name": "PUBLIX 1119",
        "lon": "-84.413958",
        "lat": "33.8101435",
        "address": "2020 Howell Mill Rd NW Atlanta GA 30318"
    },
    {
        "name": "Publix 1226",
        "lon": "-84.4331977",
        "lat": "33.7967414",
        "address": "2275 Marietta Blvd NW Atlanta GA 30318"
    },
    {
        "name": "PUBLIX 1249",
        "lon": "-84.381014",
        "lat": "33.8735021",
        "address": "5630 Roswell Rd NE Atlanta GA 30342"
    },
    {
        "name": "PUBLIX 536",
        "lon": "-84.47862812520779",
        "lat": "33.8626836",
        "address": "2451 CUMBERLAND PKWY Atlanta GA 30339"
    },
    {
        "name": "Publix 599",
        "lon": "-84.37147",
        "lat": "33.798318",
        "address": "1544 Piedmont Ave NE Atlanta GA 30324"
    },
    {
        "name": "PUBLIX 664",
        "lon": "-84.3929252",
        "lat": "33.8027569",
        "address": "3535 PEACHTREE STREET Atlanta GA 30326"
    },
    {
        "name": "SAVE-A-LOT 567",
        "lon": "-84.415828",
        "lat": "33.74056975",
        "address": "854 Oak St SW Atlanta GA 30310"
    },
    {
        "name": "SAVE-A-LOT 475",
        "lon": "-84.40816838983051",
        "lat": "33.70222452542373",
        "address": "1901 Metropolitan Pkwy SW Atlanta GA 30315"
    },
    {
        "name": "Sprouts Farmers Market 519",
        "lon": "-84.36670664705883",
        "lat": "33.80640252941176",
        "address": "1845 Piedmont Ave NE Atlanta GA 30324"
    },
    {
        "name": "Super Mercado Y Carniceria La Confianza 5",
        "lon": "-84.3651347",
        "lat": "33.8140132",
        "address": "4795 Buford Hwy Atlanta GA 30341"
    },
    {
        "name": "Supermercado Santa Fe",
        "lon": "-84.38128369502029",
        "lat": "33.9113071",
        "address": "178 Northwood Dr NE Atlanta GA 30342"
    },
    {
        "name": "Supermercado Talpa 2, Inc. Talpa 2",
        "lon": "-84.3651347",
        "lat": "33.8140132",
        "address": "4317 Buford Hwy Atlanta GA 30341"
    },
    {
        "name": "The Fresh Market 061",
        "lon": "-84.39139700516739",
        "lat": "33.812079749999995",
        "address": "2099 Peachtree Rd NE Atlanta GA 30309"
    },
    {
        "name": "The Fresh Market 084",
        "lon": "-84.37992940630264",
        "lat": "33.874384500000005",
        "address": "4405 Roswell Rd Atlanta GA 30342"
    },
    {
        "name": "Trader Joe\u2019s 730",
        "lon": "-84.3678804",
        "lat": "33.7797895",
        "address": "931 Monroe Dr NE Atlanta GA 30308"
    },
    {
        "name": "Trader Joes 735",
        "lon": "-84.3665494",
        "lat": "33.8483993",
        "address": "3183 Peachtree Rd NE Atlanta GA 30305"
    },
    {
        "name": "WAYFIELD FOODS 17",
        "lon": "-84.5022507",
        "lat": "33.62215",
        "address": "3435 ROOSEVELT HWY Atlanta GA 30349"
    },
    {
        "name": "WAYFIELD FOODS 19",
        "lon": "-84.48702583292949",
        "lat": "33.749767399999996",
        "address": "3050 Martin Luther King Jr Dr SW Atlanta GA 30311"
    },
    {
        "name": "WHOLE FOODS MARKET 10094",
        "lon": "-84.33319327301628",
        "lat": "33.8157418",
        "address": "2111 Briarcliff Rd NE Atlanta GA 30329"
    },
    {
        "name": "WHOLE FOODS MARKET 10136",
        "lon": "-84.381014",
        "lat": "33.8735021",
        "address": "5930 Roswell Rd NE Atlanta GA 30328"
    },
    {
        "name": "WHOLE FOODS MARKET 10196",
        "lon": "-84.36683650198435",
        "lat": "33.77377495",
        "address": "650 PONCE DE LEON AVE NE Atlanta GA 30308"
    },
    {
        "name": "WHOLE FOODS MARKET 10206",
        "lon": "-84.3814165184117",
        "lat": "33.8400825173921",
        "address": "43 W Paces Ferry Rd NW Atlanta GA 30305"
    },
    {
        "name": "CVS 10043",
        "lon": "-84.38705415809437",
        "lat": "33.76052905",
        "address": "235 Peachtree St NE Atlanta GA 30303"
    },
    {
        "name": "CVS PHARMACY 2082",
        "lon": "-84.3916381",
        "lat": "33.8150581",
        "address": "1943 Peachtree Rd NE Atlanta GA 30309"
    },
    {
        "name": "CVS PHARMACY 2086",
        "lon": "-84.4604737",
        "lat": "33.9033043",
        "address": "2014 Powers Ferry Rd SE Atlanta GA 30339"
    },
    {
        "name": "CVS PHARMACY 2186",
        "lon": "-84.35188001559735",
        "lat": "33.819384850000006",
        "address": "2350 CHESHIRE BRIDGE RD Atlanta GA 30324"
    },
    {
        "name": "CVS Pharmacy 2569",
        "lon": "-84.358736",
        "lat": "33.8539347",
        "address": "3637 Peachtree Rd NE Atlanta GA 30319"
    },
    {
        "name": "CVS Pharmacy 2943",
        "lon": "-84.38481400194703",
        "lat": "33.777589",
        "address": "842 Peachtree St NE Atlanta GA 30308"
    },
    {
        "name": "CVS PHARMACY 3401",
        "lon": "-84.4525914",
        "lat": "33.8661896",
        "address": "3401 Northside Parkway Atlanta GA 30327"
    },
    {
        "name": "CVS PHARMACY 3878",
        "lon": "-84.3652251",
        "lat": "33.77373905",
        "address": "680 Ponce de Leon Ave NE Atlanta GA 30308"
    },
    {
        "name": "CVS Pharmacy 4147",
        "lon": "-84.4251963",
        "lat": "33.7182043",
        "address": "5815 Campbellton Rd SW Atlanta GA 30331"
    },
    {
        "name": "CVS Pharmacy 4592",
        "lon": "-84.39202643243243",
        "lat": "33.75327505405406",
        "address": "12J Broad St SW Atlanta GA 30303"
    },
    {
        "name": "CVS Pharmacy 4604",
        "lon": "-84.3526158",
        "lat": "33.7782683",
        "address": "865 N Highland Ave NE Atlanta GA 30306"
    },
    {
        "name": "CVS Pharmacy 4661",
        "lon": "-84.502602",
        "lat": "33.776107",
        "address": "2555 Bolton Rd NW Atlanta GA 30318"
    },
    {
        "name": "CVS Pharmacy 4717",
        "lon": "-84.46722350694878",
        "lat": "33.751916186021305",
        "address": "2429 Martin Luther King Jr Dr SW Atlanta GA 30311"
    },
    {
        "name": "CVS Pharmacy 4723",
        "lon": "-84.37336871428572",
        "lat": "33.76145653061225",
        "address": "438 Highland Ave NE Atlanta GA 30312"
    },
    {
        "name": "CVS PHARMACY 4747",
        "lon": "-84.37147",
        "lat": "33.798318",
        "address": "1544 PIEDMONT AVE NE Atlanta GA 30324"
    },
    {
        "name": "CVS Pharmacy 4757",
        "lon": "-84.40721272825525",
        "lat": "33.680647750000006",
        "address": "2720 Metropolitan Pkwy SW Atlanta GA 30315"
    },
    {
        "name": "CVS Pharmacy 5411",
        "lon": "-84.381014",
        "lat": "33.8735021",
        "address": "4600 Roswell Rd Atlanta GA 30342"
    },
    {
        "name": "CVS PHARMACY 5731",
        "lon": "-84.3665494",
        "lat": "33.8483993",
        "address": "3221 Peachtree Rd NE Atlanta GA 30305"
    },
    {
        "name": "CVS Pharmacy 7336",
        "lon": "-84.3676064",
        "lat": "33.7406544",
        "address": "520 Boulevard SE Atlanta GA 30312"
    },
    {
        "name": "CVS PHARMACY 7974",
        "lon": "-84.381014",
        "lat": "33.8735021",
        "address": "7355 Roswell Rd NE Atlanta GA 30328"
    },
    {
        "name": "CVS Pharmacy 81",
        "lon": "-84.3499482",
        "lat": "33.7132896",
        "address": "1455 Moreland Ave SE Atlanta GA 30316"
    },
    {
        "name": "Rite Aid 11788",
        "lon": "-84.3665494",
        "lat": "33.8483993",
        "address": "2345 Peachtree Rd NE Atlanta GA 30305"
    },
    {
        "name": "Rite Aid 11790",
        "lon": "-84.35856264315254",
        "lat": "33.77353685",
        "address": "891 Ponce de Leon Ave NE Atlanta GA 30306"
    },
    {
        "name": "Rite Aid 11792",
        "lon": "-84.292534",
        "lat": "33.747146199999996",
        "address": "2886 Memorial Dr SE Atlanta GA 30317"
    },
    {
        "name": "Rite Aid 11793",
        "lon": "-84.413958",
        "lat": "33.8101435",
        "address": "2020 Howell Mill Rd NW Atlanta GA 30318"
    },
    {
        "name": "Rite Aid 11796",
        "lon": "-84.3522835",
        "lat": "33.9198929",
        "address": "1100 Hammond Dr NE Atlanta GA 30328"
    },
    {
        "name": "Rite Aid 11800",
        "lon": "-84.4762482",
        "lat": "33.86492695",
        "address": "2498 Cumberland Pkwy SE Atlanta GA 30339"
    },
    {
        "name": "WALGREENS 6032",
        "lon": "-84.38116260015576",
        "lat": "33.7703091",
        "address": "595 Piedmont Ave NE Atlanta GA 30308"
    },
    {
        "name": "Walgreens 09303",
        "lon": "-84.3665494",
        "lat": "33.8483993",
        "address": "2893 Peachtree Rd NE Atlanta GA 30305"
    },
    {
        "name": "Walgreens 10265",
        "lon": "-84.381014",
        "lat": "33.8735021",
        "address": "4535 Roswell Rd NE Atlanta GA 30342"
    },
    {
        "name": "Walgreens 10422",
        "lon": "-84.381014",
        "lat": "33.8735021",
        "address": "3658 Roswell Rd NE Atlanta GA 30342"
    },
    {
        "name": "Walgreens 11488",
        "lon": "-84.407802845253",
        "lat": "33.68092343858975",
        "address": "2711 Metropolitan Pkwy SW Atlanta GA 30315"
    },
    {
        "name": "Walgreens 13759",
        "lon": "-84.4687869",
        "lat": "33.588145",
        "address": "6120 Old National Hwy Atlanta GA 30349"
    },
    {
        "name": "Walgreens 16088",
        "lon": "-84.39112128776101",
        "lat": "33.7533664269916",
        "address": "25 Peachtree St SW Atlanta GA 30303"
    },
    {
        "name": "Walgreens 6204",
        "lon": "-84.36624072650625",
        "lat": "33.96053225",
        "address": "7530 Roswell Rd Atlanta GA 30350"
    },
    {
        "name": "CARNICERIA EL EJIDO 1",
        "lon": "-84.44420415008099",
        "lat": "33.6695956",
        "address": "3145 Main St Atlanta GA 30344"
    },
    {
        "name": "Carniceria Los Pinos",
        "lon": "-84.381014",
        "lat": "33.8735021",
        "address": "6342 Roswell Rd Atlanta GA 30328"
    },
    {
        "name": "CARNICERIA RAMIREZ",
        "lon": "-84.502602",
        "lat": "33.776107",
        "address": "2600 Bolton Rd NW Atlanta GA 30318"
    },
    {
        "name": "CARNICERIA Y TIENDA EL PROGRESO",
        "lon": "-84.39554923812479",
        "lat": "33.68141265",
        "address": "199 Cleveland Ave SW Atlanta GA 30315"
    },
    {
        "name": "Carniceria Y Tienda El Progreso 14",
        "lon": "-84.36848880952381",
        "lat": "33.71445642857143",
        "address": "1460 Boulevard Se Atlanta GA 30315"
    },
    {
        "name": "Target 2333",
        "lon": "-84.381014",
        "lat": "33.8735021",
        "address": "5610 Roswell Rd NE Atlanta GA 30342"
    },
    {
        "name": "Target Store T-1197",
        "lon": "-84.3616707",
        "lat": "33.8507556",
        "address": "3535 Peachtree Rd NE Atlanta GA 30326"
    },
    {
        "name": "TARGET STORE T-1964",
        "lon": "-84.3461717755102",
        "lat": "33.75835424489796",
        "address": "1275 Caroline St NE Atlanta GA 30307"
    },
    {
        "name": "Target Store T-2137",
        "lon": "-84.3994001",
        "lat": "33.7927",
        "address": "375 18th St NW Atlanta GA 30363"
    },
    {
        "name": "TARGET STORE T-2171",
        "lon": "-84.36345247420635",
        "lat": "33.82366605",
        "address": "2539 Piedmont Rd NE Atlanta GA 30324"
    },
    {
        "name": "Walmart SUPERCENTER 3709",
        "lon": "-84.31282500369457",
        "lat": "33.71940295",
        "address": "2427 Gresham Rd SE Atlanta GA 30316"
    },
    {
        "name": "Walmart Supercenter 3775",
        "lon": "-84.4107163",
        "lat": "33.8025976",
        "address": "1801 Howell Mill Rd NW Atlanta GA 30318"
    },
    {
        "name": "Costco Wholesale 0188",
        "lon": "-84.3523073",
        "lat": "33.9285613",
        "address": "6350 Peachtree Dunwoody Rd NE Atlanta GA 30328"
    },
    {
        "name": "14th Street Gas Station",
        "lon": "-84.39796615",
        "lat": "33.786353",
        "address": "329 14th St Nw Atlanta GA 30318"
    },
    {
        "name": "14th Street Texaco Food Mart",
        "lon": "-84.40710975547051",
        "lat": "33.785890300000005",
        "address": "608 14th St Nw Atlanta GA 30318"
    },
    {
        "name": "164 Marietta LLC dba Circle K",
        "lon": "-84.43644432068274",
        "lat": "33.8016877",
        "address": "1720 Marietta Blvd Nw Atlanta GA 30318"
    },
    {
        "name": "2 Rays Mart",
        "lon": "-84.5939934",
        "lat": "33.6512216",
        "address": "3820 Stonewall Tell Rd Atlanta GA 30349"
    },
    {
        "name": "2j African Market",
        "lon": "-84.47579705224602",
        "lat": "33.70233642045147",
        "address": "2672 Campbellton Rd SW Atlanta GA 30311"
    },
    {
        "name": "3 Way Grocery",
        "lon": "-84.3989885",
        "lat": "33.6983337",
        "address": "1695 Pryor Rd Sw Atlanta GA 30315"
    },
    {
        "name": "5 Points Convenience Store",
        "lon": "-84.39210437837838",
        "lat": "33.753178297297296",
        "address": "20 Broad St Sw Atlanta GA 30303"
    },
    {
        "name": "75 FARMERS MARKET",
        "lon": "-84.39511275675676",
        "lat": "33.6810297027027",
        "address": "230 Cleveland Ave SW Atlanta GA 30315"
    },
    {
        "name": "ABC Produce Market",
        "lon": "-84.5519054",
        "lat": "33.604665",
        "address": "5530 Stonewall Tell Rd Atlanta GA 30349"
    },
    {
        "name": "Adair Park Urban Farm",
        "lon": "-84.41338407142857",
        "lat": "33.723244571428566",
        "address": "1150 Allene Ave Sw Atlanta GA 30310"
    },
    {
        "name": "Ak Food Store",
        "lon": "-84.451325",
        "lat": "33.764789",
        "address": "1981 Joseph E Boone Blvd NW Atlanta GA 30314"
    },
    {
        "name": "Al-houda Market 2973D",
        "lon": "-84.48749607873805",
        "lat": "33.68964972840582",
        "address": "2973 Headland Dr SW Atlanta GA 30311"
    },
    {
        "name": "Alison Food Mart",
        "lon": "-84.45655912437282",
        "lat": "33.70104005",
        "address": "2075 Alison Ct Sw Atlanta GA 30311"
    },
    {
        "name": "American Hispanic Market",
        "lon": "-84.3651347",
        "lat": "33.8140132",
        "address": "3253 Buford Hwy Atlanta GA 30329"
    },
    {
        "name": "American Meats, Llc",
        "lon": "-84.44725019202484",
        "lat": "33.79173890554017",
        "address": "1717 Wilma Dr Nw Atlanta GA 30318"
    },
    {
        "name": "Anthonys Store",
        "lon": "-84.40599431879232",
        "lat": "33.769287250000005",
        "address": "569 Meldrum St NW Atlanta GA 30318"
    },
    {
        "name": "Anwar Farm To Table",
        "lon": "-84.36613670738066",
        "lat": "33.76374905",
        "address": "645 Willoughby Way NE Atlanta GA 30312"
    },
    {
        "name": "Atlanta Food Mart",
        "lon": "-84.40758141279719",
        "lat": "33.7225343",
        "address": "1190 Metropolitan Pkwy Sw Atlanta GA 30310"
    },
    {
        "name": "Atlanta Food Mart LLC",
        "lon": "-84.43022076353971",
        "lat": "33.734678900000006",
        "address": "1298 Donnelly Ave Sw Atlanta GA 30310"
    },
    {
        "name": "Atlanta Mobile Market, Inc",
        "lon": "-84.446005",
        "lat": "33.774312",
        "address": "3120 Donald Lee Hollowell Pkwy Nw Atlanta GA 30318"
    },
    {
        "name": "Auburn Avenue Specialties & Gifts",
        "lon": "-84.37532686666667",
        "lat": "33.75558053333333",
        "address": "370 Auburn Ave NE Atlanta GA 30312"
    },
    {
        "name": "B And E Food Mart",
        "lon": "-84.46081240113625",
        "lat": "33.78526665",
        "address": "1097 Hollywood Rd Nw Atlanta GA 30318"
    },
    {
        "name": "Bankhead Food Store, Inc",
        "lon": "-84.4924933",
        "lat": "33.7864633",
        "address": "3263 Donald Lee Hollowell Pkwy NW Atlanta GA 30331"
    },
    {
        "name": "Bankhead Xpress Mart 1",
        "lon": "-84.446005",
        "lat": "33.774312",
        "address": "2650 Donald Lee Hollowell Pkwy NW Atlanta GA 30318"
    },
    {
        "name": "Best For Less",
        "lon": "-84.40707215",
        "lat": "33.7817811",
        "address": "1001 Northside Dr NW Atlanta GA 30318"
    },
    {
        "name": "Big A Food Mart",
        "lon": "-84.43435132502151",
        "lat": "33.7708262",
        "address": "568 Chappell Rd Nw Atlanta GA 30318"
    },
    {
        "name": "Big A Food Mart",
        "lon": "-84.517948",
        "lat": "33.6564789",
        "address": "2780 Camp Creek Pkwy Atlanta GA 30337"
    },
    {
        "name": "Big AJ Store 2",
        "lon": "-84.3681382",
        "lat": "33.8224447",
        "address": "3817 Main St Atlanta GA 30337"
    },
    {
        "name": "Big Brother Meat And Grocery",
        "lon": "-84.42261299691054",
        "lat": "33.72305345",
        "address": "1177 Lee St Sw Atlanta GA 30310"
    },
    {
        "name": "Big Brother Supermarket",
        "lon": "-84.39654337513682",
        "lat": "33.709436",
        "address": "400 Amal Dr SW Atlanta GA 30315"
    },
    {
        "name": "Big Daddy\u2019s Discount Meat",
        "lon": "-84.424562651733",
        "lat": "33.720570699999996",
        "address": "1265 Lee St SW Atlanta GA 30310"
    },
    {
        "name": "BIG DADDY\u2019S DISCOUNT MEATS",
        "lon": "-84.424562651733",
        "lat": "33.720570699999996",
        "address": "1265 Lee St SW Atlanta GA 30310"
    },
    {
        "name": "BIG FOUR DISCOUNT SUPERMARKET",
        "lon": "-84.401725",
        "lat": "33.72742771428572",
        "address": "1003 McDaniel St SW Atlanta GA 30310"
    },
    {
        "name": "Big H Food Mart",
        "lon": "-84.48336235",
        "lat": "33.6976123",
        "address": "2900 Campbellton Rd SW Atlanta GA 30311"
    },
    {
        "name": "Big H Foodmart",
        "lon": "-84.34975020036333",
        "lat": "33.732105849999996",
        "address": "825 Moreland Ave Se Atlanta GA 30316"
    },
    {
        "name": "Bigbrother Super Market",
        "lon": "-84.39654337513682",
        "lat": "33.709436",
        "address": "400 Amal Dr Sw Atlanta GA 30315"
    },
    {
        "name": "Blue Water Grocery Store",
        "lon": "-84.439287",
        "lat": "33.763656",
        "address": "1575 Joseph E Boone Blvd NW Atlanta GA 30314"
    },
    {
        "name": "Bolton Road Farmer\u2019s Market",
        "lon": "-84.502602",
        "lat": "33.776107",
        "address": "2081 Bolton Rd NW Atlanta GA 30318"
    },
    {
        "name": "Boulevard Food Mart",
        "lon": "-84.37200741666668",
        "lat": "33.757903000000006",
        "address": "111 Boulevard NE Atlanta GA 30312"
    },
    {
        "name": "BOULEVARD LOTTO & GROCERY",
        "lon": "-84.37184904545455",
        "lat": "33.76459306818182",
        "address": "371 Boulevard NE Atlanta GA 30312"
    },
    {
        "name": "Brightside Farm",
        "lon": "-84.33225827488808",
        "lat": "33.724661223581116",
        "address": "1088 Bouldercrest Dr Se Atlanta GA 30316"
    },
    {
        "name": "Brothers Grocery",
        "lon": "-84.40827744547812",
        "lat": "33.7310562",
        "address": "875 Metropolitan Pkwy Sw Atlanta GA 30310"
    },
    {
        "name": "Buddys Food Mart",
        "lon": "-84.3489866",
        "lat": "33.7424009",
        "address": "1181 McPherson Ave SE Atlanta GA 30316"
    },
    {
        "name": "Busy Bee Grocery",
        "lon": "-84.4758608572395",
        "lat": "33.811926650000004",
        "address": "2051 James Jackson Pkwy NW Atlanta GA 30318"
    },
    {
        "name": "BUY LOW SUPERMARKET",
        "lon": "-84.47505912954753",
        "lat": "33.777711100000005",
        "address": "820 James Jackson Pkwy NW Atlanta GA 30318"
    },
    {
        "name": "Camp Food Mart",
        "lon": "-84.47586236816402",
        "lat": "33.70232461363431",
        "address": "2674 Campbellton Rd Sw Atlanta GA 30311"
    },
    {
        "name": "Campbellton Bp",
        "lon": "-84.4251963",
        "lat": "33.7182043",
        "address": "3550 Campbellton Rd SW Atlanta GA 30331"
    },
    {
        "name": "CANDLER ROAD EXXON",
        "lon": "-84.29206257906328",
        "lat": "33.74747094032723",
        "address": "202 Candler Rd SE Atlanta GA 30317"
    },
    {
        "name": "Carver Neighborhood Market",
        "lon": "-84.3851723",
        "lat": "33.718837",
        "address": "1297 Jonesboro Road Se Atlanta GA 30315"
    },
    {
        "name": "Castleberry Point Market",
        "lon": "-84.3986662",
        "lat": "33.7542205",
        "address": "110 Centennial Olympic Park Dr SW Atlanta GA 30313"
    },
    {
        "name": "Centered Table",
        "lon": "-84.37020395373443",
        "lat": "33.756752899999995",
        "address": "88 Howell St Ne Atlanta GA 30312"
    },
    {
        "name": "Chicos And Chicas , LLC",
        "lon": "-84.50488576470589",
        "lat": "33.75922070588235",
        "address": "3571 Martin Luther King Jr Dr Sw Atlanta GA 30331"
    },
    {
        "name": "City Food Market",
        "lon": "-84.3966279",
        "lat": "33.6530891",
        "address": "417 N Central Ave Atlanta GA 30354"
    },
    {
        "name": "City Food Mart, Llc",
        "lon": "-84.42689791457869",
        "lat": "33.72826095",
        "address": "976 Oakland Dr Sw Atlanta GA 30310"
    },
    {
        "name": "Cleveland Food Mart",
        "lon": "-84.41822579863643",
        "lat": "33.68091825",
        "address": "890 Cleveland Ave Atlanta GA 30344"
    },
    {
        "name": "CMAD African Market",
        "lon": "-84.45975225201059",
        "lat": "33.705537895496875",
        "address": "2188 Campbellton Rd SW Atlanta GA 30311"
    },
    {
        "name": "Continental Seafood Inc",
        "lon": "-84.446005",
        "lat": "33.774312",
        "address": "2565 Donald Lee Hollowell Pkwy Nw Atlanta GA 30318"
    },
    {
        "name": "Corner Grocery",
        "lon": "-84.40816945",
        "lat": "33.7164612",
        "address": "1407 Metropolitan Pkwy SW Atlanta GA 30310"
    },
    {
        "name": "Corner Market",
        "lon": "-84.4181347052229",
        "lat": "33.66328565",
        "address": "3332 Colville Ave Atlanta GA 30354"
    },
    {
        "name": "Cory\u2019s Convenience Store",
        "lon": "-84.440442",
        "lat": "33.7633932",
        "address": "1606 Joseph E Boone Blvd Nw Atlanta GA 30314"
    },
    {
        "name": "Corys Conveience Store",
        "lon": "-84.35029810091743",
        "lat": "33.752347899082565",
        "address": "1183 Wylie St SE Atlanta GA 30316"
    },
    {
        "name": "Country Tyme Food Deliveries 1",
        "lon": "-84.3653476",
        "lat": "33.7723214",
        "address": "675 Ponce de Leon Ave NE Atlanta GA 30308"
    },
    {
        "name": "COUSINS TEXACO",
        "lon": "-84.4251963",
        "lat": "33.7182043",
        "address": "3750 Campbellton Rd SW Atlanta GA 30331"
    },
    {
        "name": "Cross Road BP",
        "lon": "-84.40844182402728",
        "lat": "33.69890145",
        "address": "2095 Metropolitan Pkwy SW Atlanta GA 30315"
    },
    {
        "name": "Darlington Grocery Store",
        "lon": "-84.3916381",
        "lat": "33.8150581",
        "address": "2025 Peachtree Rd NE Atlanta GA 30309"
    },
    {
        "name": "Das Foodmart",
        "lon": "-84.4238916",
        "lat": "33.7099898",
        "address": "1084 Katherwood Dr Sw Atlanta GA 30310"
    },
    {
        "name": "Deals 4527",
        "lon": "-84.49512682590154",
        "lat": "33.68902345",
        "address": "2841 Greenbriar Pkwy SW Atlanta GA 30331"
    },
    {
        "name": "Deals 5242",
        "lon": "-84.40818734693877",
        "lat": "33.69872025510204",
        "address": "2034 Metropolitan Pkwy SW Atlanta GA 30315"
    },
    {
        "name": "Delowe Marathon",
        "lon": "-84.457253",
        "lat": "33.700603",
        "address": "2000 Delowe Dr SW Atlanta GA 30311"
    },
    {
        "name": "Delowe Valero",
        "lon": "-84.45726406897383",
        "lat": "33.701215053113174",
        "address": "1980 Delowe Dr SW Atlanta GA 30311"
    },
    {
        "name": "Discount Food Mart",
        "lon": "-84.33468550351606",
        "lat": "33.72955949051832",
        "address": "886 Bouldercrest Dr Se Atlanta GA 30316"
    },
    {
        "name": "Discount Mart Llc",
        "lon": "-84.4143537",
        "lat": "33.7320701",
        "address": "837 Lee St SW Atlanta GA 30310"
    },
    {
        "name": "DISCOUNT MEAT MARKET",
        "lon": "-84.35026250458716",
        "lat": "33.75234749541284",
        "address": "1191 Wylie St SE Atlanta GA 30316"
    },
    {
        "name": "DIXIE NEWS",
        "lon": "-84.38954585714285",
        "lat": "33.75408771428572",
        "address": "13 Decatur St SE Atlanta GA 30303"
    },
    {
        "name": "Donnelly Food Mart",
        "lon": "-84.43002460000001",
        "lat": "33.734529300000005",
        "address": "1294 Donnelly Ave SW Atlanta GA 30310"
    },
    {
        "name": "EAST ATLANTA FOOD MART",
        "lon": "-84.36844484615385",
        "lat": "33.717376615384616",
        "address": "1362 Boulevard SE Atlanta GA 30315"
    },
    {
        "name": "East Atlanta Village Farmers Market",
        "lon": "-84.355862",
        "lat": "33.750938",
        "address": "508 Flat Shoals Ave SE Atlanta GA 30316"
    },
    {
        "name": "East Point Food Mart",
        "lon": "-84.44130423426925",
        "lat": "33.67722155",
        "address": "2861 Main St Atlanta GA 30344"
    },
    {
        "name": "El Bueno Food Mart",
        "lon": "-84.3651347",
        "lat": "33.8140132",
        "address": "4775 Buford Hwy Atlanta GA 30341"
    },
    {
        "name": "FAIRBURN FOOD MART",
        "lon": "-84.50019764864865",
        "lat": "33.768159189189184",
        "address": "490 FAIRBURN RD Atlanta GA 30313"
    },
    {
        "name": "FAMILY FOOD STORE",
        "lon": "-84.338546",
        "lat": "33.755301",
        "address": "69 Mayson Ave NE Atlanta GA 30307"
    },
    {
        "name": "Family Foodmart",
        "lon": "-84.38748245454545",
        "lat": "33.73047786363637",
        "address": "12 Atlanta Ave SE Atlanta GA 30315"
    },
    {
        "name": "Father And Son Superette",
        "lon": "-84.38281281774684",
        "lat": "33.727079700000004",
        "address": "1002 Martin St SE Atlanta GA 30315"
    },
    {
        "name": "Fernander\u2019s Food Mart",
        "lon": "-84.46815603197311",
        "lat": "33.7990095",
        "address": "2442 Arno Dr Nw Atlanta GA 30318"
    },
    {
        "name": "Fiesta Food Market, LLC",
        "lon": "-84.3670067009725",
        "lat": "33.82234525",
        "address": "2455 Piedmont Rd Ne Atlanta GA 30324"
    },
    {
        "name": "Flat Shoals Citgo",
        "lon": "-84.32275269565217",
        "lat": "33.72614669565217",
        "address": "1988 Flat Shoals Rd SE Atlanta GA 30316"
    },
    {
        "name": "Flat Shoals Food",
        "lon": "-84.32282528260869",
        "lat": "33.72618778260869",
        "address": "1981 Flat Shoals Rd Se Atlanta GA 30316"
    },
    {
        "name": "Fountain Of Hope 1",
        "lon": "-84.45107406864082",
        "lat": "33.77764004176269",
        "address": "829 Hollywood Rd Nw Atlanta GA 30318"
    },
    {
        "name": "Freedom Farmers\u2019 Market",
        "lon": "-84.3554310530578",
        "lat": "33.76592290432781",
        "address": "453 Freedom Pkwy NE Atlanta GA 30307"
    },
    {
        "name": "Freewheel Farm",
        "lon": "-84.38460620000001",
        "lat": "33.729198749999995",
        "address": "105 Vanira Ave Se Atlanta GA 30315"
    },
    {
        "name": "Fresh Marta Market Five Points",
        "lon": "-84.3910801",
        "lat": "33.7537592",
        "address": "30 Alabama St SW Atlanta GA 30303"
    },
    {
        "name": "Fresh Marta Market He Holmes",
        "lon": "-84.467467",
        "lat": "33.751877",
        "address": "70 Hamilton E Holmes Dr Nw Atlanta GA 30311"
    },
    {
        "name": "Fresh Marta Market West End",
        "lon": "-84.41398",
        "lat": "33.738106",
        "address": "600 Lee St SW Atlanta GA 30310"
    },
    {
        "name": "Fresh Of The Vine Market",
        "lon": "-84.40848994117647",
        "lat": "33.763351",
        "address": "678 Joseph E Boone Blvd Nw Atlanta GA 30314"
    },
    {
        "name": "Friend My Family",
        "lon": "-84.46361361976813",
        "lat": "33.7517527",
        "address": "2194 Martin Luther King Jr Dr SW Atlanta GA 30310"
    },
    {
        "name": "FRUIT VEGGIES AND HERBS",
        "lon": "-84.45663247237324",
        "lat": "33.7070506",
        "address": "2085 Campbellton Rd SW Atlanta GA 30311"
    },
    {
        "name": "Fulton Industrial Amoco",
        "lon": "-84.52954231762061",
        "lat": "33.7660056",
        "address": "4335 Fulton Industrial Blvd SW Atlanta GA 30336"
    },
    {
        "name": "Gilliam\u2019s Community Garden",
        "lon": "-84.42894094949494",
        "lat": "33.720998525252526",
        "address": "1286 Oakland Ter Sw Atlanta GA 30310"
    },
    {
        "name": "Global Newsstand",
        "lon": "-84.49512682590154",
        "lat": "33.68902345",
        "address": "2841 Greenbriar Pkwy SW Atlanta GA 30331"
    },
    {
        "name": "Good Samaritan Health Center Urban Farm",
        "lon": "-84.446005",
        "lat": "33.774312",
        "address": "1015 Donald Lee Hollowell Pkwy Nw Atlanta GA 30318"
    },
    {
        "name": "GREATER AMERICAN FOODS, INC.",
        "lon": "-84.31072",
        "lat": "33.7195677",
        "address": "2345 Flat Shoals Rd SE Atlanta GA 30316"
    },
    {
        "name": "Green Grocery Store",
        "lon": "-84.42562742857143",
        "lat": "33.76359028571428",
        "address": "1143 Joseph E Boone Blvd Nw Atlanta GA 30314"
    },
    {
        "name": "Green Island Grocery Store",
        "lon": "-84.394599",
        "lat": "33.734196",
        "address": "759 Pryor St Sw Atlanta GA 30315"
    },
    {
        "name": "Greenbriar Chevron",
        "lon": "-84.4876998114057",
        "lat": "33.689484330586346",
        "address": "3040 Headland Dr SW Atlanta GA 30311"
    },
    {
        "name": "Gresham Road Chevron",
        "lon": "-84.3099905",
        "lat": "33.7170021",
        "address": "2452 Gresham Rd Se Atlanta GA 30316"
    },
    {
        "name": "H & R Food Mart",
        "lon": "-84.4563871988494",
        "lat": "33.78164",
        "address": "980 Hollywood Rd Nw Atlanta GA 30318"
    },
    {
        "name": "Halal One",
        "lon": "-84.3270805682001",
        "lat": "33.72357826101208",
        "address": "1128 Fayetteville Rd Se Atlanta GA 30316"
    },
    {
        "name": "Hapeville Mart",
        "lon": "-84.3966279",
        "lat": "33.6530891",
        "address": "751 N Central Ave Atlanta GA 30354"
    },
    {
        "name": "Happy Store Citgo",
        "lon": "-84.52080573398437",
        "lat": "33.76997265",
        "address": "4060 Martin Luther King Jr Dr Sw Atlanta GA 30336"
    },
    {
        "name": "Haribol Food Market",
        "lon": "-84.40811274909397",
        "lat": "33.67625985",
        "address": "2866 Metropolitan Pkwy Sw Atlanta GA 30315"
    },
    {
        "name": "HARMONY CORNER MARKET",
        "lon": "-84.3811498",
        "lat": "33.747062099999994",
        "address": "196 Memorial Dr SE Atlanta GA 30312"
    },
    {
        "name": "Heartbeat Market",
        "lon": "-84.30996471428571",
        "lat": "33.73996414285714",
        "address": "2325 Glenwood Ave Se Atlanta GA 30316"
    },
    {
        "name": "Henrys Pack A Sack",
        "lon": "-84.42566062919285",
        "lat": "33.76380915",
        "address": "1167 Joseph E Boone Blvd Nw Atlanta GA 30314"
    },
    {
        "name": "Hill St Texaco",
        "lon": "-84.379528",
        "lat": "33.749767",
        "address": "364 Hill St Se Atlanta GA 30312"
    },
    {
        "name": "His Promise Supermarket",
        "lon": "-84.3520476",
        "lat": "33.9906619",
        "address": "8610 Roswell Rd Atlanta GA 30350"
    },
    {
        "name": "Hoa-Binh Supermarket",
        "lon": "-84.3651347",
        "lat": "33.8140132",
        "address": "4897 Buford Hwy Atlanta GA 30341"
    },
    {
        "name": "Holmes Street Food",
        "lon": "-84.467467",
        "lat": "33.751877",
        "address": "101 Hamilton E Holmes Dr NW Atlanta GA 30311"
    },
    {
        "name": "Hopin Food Mart",
        "lon": "-84.446005",
        "lat": "33.774312",
        "address": "2784 Donald Lee Hollowell Pkwy Nw Atlanta GA 30318"
    },
    {
        "name": "Howell Mill Shell",
        "lon": "-84.4142378",
        "lat": "33.80354953333333",
        "address": "1790 Howell Mill Rd Nw Atlanta GA 30318"
    },
    {
        "name": "IGUALA MEAT MARKET",
        "lon": "-84.37989417083325",
        "lat": "33.91051195",
        "address": "215 Northwood Dr NE Atlanta GA 30342"
    },
    {
        "name": "International Supermarket",
        "lon": "-84.4491048",
        "lat": "33.6506662",
        "address": "3827 Main St Atlanta GA 30337"
    },
    {
        "name": "Intown Market",
        "lon": "-84.3787121",
        "lat": "33.7497186",
        "address": "349 Decatur St SE Atlanta GA 30312"
    },
    {
        "name": "ITC Meat Mart LLC",
        "lon": "-84.48845760363396",
        "lat": "33.68840925",
        "address": "2740 Greenbriar Pkwy SW Atlanta GA 30331"
    },
    {
        "name": "J & C FOOD MART",
        "lon": "-84.3915067",
        "lat": "33.7526658",
        "address": "68 Peachtree St SW Atlanta GA 30303"
    },
    {
        "name": "Jena Investment Inc",
        "lon": "-84.34928500000001",
        "lat": "33.773479800000004",
        "address": "1161 Ponce De Leon Ave Ne Atlanta GA 30306"
    },
    {
        "name": "Jonesboro Food Mart",
        "lon": "-84.38229119228615",
        "lat": "33.71047845",
        "address": "1553 Jonesboro Rd Se Atlanta GA 30315"
    },
    {
        "name": "Jonesboro Rd Chevron",
        "lon": "-84.37155699570151",
        "lat": "33.672249",
        "address": "3012 Jonesboro Rd Se Atlanta GA 30354"
    },
    {
        "name": "K-Food Mart",
        "lon": "-84.33279525",
        "lat": "33.7473685",
        "address": "1675 Memorial Dr SE Atlanta GA 30317"
    },
    {
        "name": "La Canasta Supermercado #! Ste #6",
        "lon": "-84.37989417083325",
        "lat": "33.91051195",
        "address": "215 Northwood Dr Atlanta GA 30342"
    },
    {
        "name": "La Escondida",
        "lon": "-84.38276224353032",
        "lat": "33.911609350000006",
        "address": "120 Northwood Dr Atlanta GA 30342"
    },
    {
        "name": "Lakewood Fair LLC",
        "lon": "-84.3989885",
        "lat": "33.6983337",
        "address": "1917 Pryor Rd SW Atlanta GA 30315"
    },
    {
        "name": "Larrys Quick Stop 1",
        "lon": "-84.41892168822878",
        "lat": "33.68092835",
        "address": "2717 Sylvan Rd Atlanta GA 30344"
    },
    {
        "name": "Lee Food Mart",
        "lon": "-84.42287",
        "lat": "33.722578",
        "address": "1193 Lee St SW Atlanta GA 30310"
    },
    {
        "name": "Lee St Chevron",
        "lon": "-84.4160474160253",
        "lat": "33.729894349999995",
        "address": "923 Lee St Sw Atlanta GA 30310"
    },
    {
        "name": "LEE STREET EXXON",
        "lon": "-84.42109245149376",
        "lat": "33.724551149999996",
        "address": "1117 Lee St SW Atlanta GA 30310"
    },
    {
        "name": "Lg Foodmart",
        "lon": "-84.446005",
        "lat": "33.774312",
        "address": "2038 Donald Lee Hollowell Pkwy NW Atlanta GA 30318"
    },
    {
        "name": "LGL Food Mart",
        "lon": "-84.327517",
        "lat": "33.7191303",
        "address": "2265 Brannen Rd Se Atlanta GA 30316"
    },
    {
        "name": "Louisiana Atlanta Seafood Market",
        "lon": "-84.5048",
        "lat": "33.759145",
        "address": "3565 Martin Luther King Jr Dr SW Atlanta GA 30331"
    },
    {
        "name": "Low-Low-Mini Mart",
        "lon": "-84.4738228",
        "lat": "33.776767",
        "address": "905 James Jackson Pkwy Nw Atlanta GA 30318"
    },
    {
        "name": "LUCKIE STREET GROCERY",
        "lon": "-84.3964549898374",
        "lat": "33.7651105",
        "address": "388 Luckie St NW Atlanta GA 30313"
    },
    {
        "name": "Lucky 7 Food Mart",
        "lon": "-84.47614943003933",
        "lat": "33.753988",
        "address": "2716 Martin Luther King Jr Dr Sw Atlanta GA 30311"
    },
    {
        "name": "M Street Corner Market",
        "lon": "-84.408058",
        "lat": "33.77688752631579",
        "address": "950 Marietta St NW Atlanta GA 30318"
    },
    {
        "name": "Magic Food Mart",
        "lon": "-84.5362038950655",
        "lat": "33.761180100000004",
        "address": "4590 Fulton Industrial Blvd Sw Atlanta GA 30336"
    },
    {
        "name": "Mahek Properties Llc",
        "lon": "-84.41291682498576",
        "lat": "33.806816654209015",
        "address": "1892 Howell Mill Rd Nw Atlanta GA 30318"
    },
    {
        "name": "Main Street Chevron",
        "lon": "-84.44823786345906",
        "lat": "33.65890135",
        "address": "3537 Main St Atlanta GA 30337"
    },
    {
        "name": "Main Street Citgo",
        "lon": "-84.43051935365281",
        "lat": "33.69655615",
        "address": "2139 Main St Atlanta GA 30344"
    },
    {
        "name": "Mave Bakery 1",
        "lon": "-84.3651347",
        "lat": "33.8140132",
        "address": "3317 Buford Hwy Atlanta GA 30329"
    },
    {
        "name": "Maya Food Market",
        "lon": "-84.43442297133666",
        "lat": "33.71493035",
        "address": "1411 Venetian Dr Sw Atlanta GA 30311"
    },
    {
        "name": "Mcdaniel Food Mart",
        "lon": "-84.409593",
        "lat": "33.72219",
        "address": "409 University Ave SW Atlanta GA 30310"
    },
    {
        "name": "Mercado Fresco",
        "lon": "-84.3061142",
        "lat": "33.864181",
        "address": "4166 Buford Hwy Atlanta GA 30345"
    },
    {
        "name": "Meropolitan Food Mart",
        "lon": "-84.40801285193196",
        "lat": "33.67974949873769",
        "address": "2763 Metropolitan Pkwy Sw Atlanta GA 30315"
    },
    {
        "name": "Metro Atlanta Urban Farm",
        "lon": "-84.3681382",
        "lat": "33.8224447",
        "address": "3271 Main St Atlanta GA 30337"
    },
    {
        "name": "Midtown Food Mart",
        "lon": "-84.37664896624318",
        "lat": "33.7815126",
        "address": "225 10th St NE Atlanta GA 30309"
    },
    {
        "name": "Minimart Express",
        "lon": "-84.45383271430566",
        "lat": "33.70829215",
        "address": "1975 Campbellton Rd SW Atlanta GA 30311"
    },
    {
        "name": "Mitchell St Grocery Store",
        "lon": "-84.39354",
        "lat": "33.751324",
        "address": "173 Mitchell St SW Atlanta GA 30303"
    },
    {
        "name": "Mk Energy Glenwood Llc BPGlenwood",
        "lon": "-84.30881889473685",
        "lat": "33.739938631578944",
        "address": "2371 Glenwood Ave SE Atlanta GA 30317"
    },
    {
        "name": "Mk Energy Peachtree 2193",
        "lon": "-84.3916381",
        "lat": "33.8150581",
        "address": "2193 Peachtree Rd NE Atlanta GA 30309"
    },
    {
        "name": "MLK CITGO FOOD MART",
        "lon": "-84.50760750860479",
        "lat": "33.762088399999996",
        "address": "3657 Martin Luther King Jr Dr SW Atlanta GA 30331"
    },
    {
        "name": "MLK Food Mart",
        "lon": "-84.467822",
        "lat": "33.751884",
        "address": "2460 Martin Luther King Jr Dr Sw Atlanta GA 30311"
    },
    {
        "name": "Mlk Petroleum Inc",
        "lon": "-84.49259992933075",
        "lat": "33.75244967487617",
        "address": "3221 Martin Luther King Jr Dr SW Atlanta GA 30311"
    },
    {
        "name": "MLK Texaco",
        "lon": "-84.4974107",
        "lat": "33.7540148",
        "address": "3330 Martin Luther King Jr Dr SW Atlanta GA 30331"
    },
    {
        "name": "Mlk Westland Bp Inc.",
        "lon": "-84.4726994",
        "lat": "33.7536782",
        "address": "2595 Martin Luther King Jr Dr SW Atlanta GA 30311"
    },
    {
        "name": "Monroe Drive Chevron",
        "lon": "-84.36852841092647",
        "lat": "33.81034545",
        "address": "2195 Monroe Dr NE Atlanta GA 30324"
    },
    {
        "name": "Moreland Food Mart",
        "lon": "-84.3488765",
        "lat": "33.747835",
        "address": "1176 Memorial Dr SE Atlanta GA 30316"
    },
    {
        "name": "MORELAND SUPERMARKET",
        "lon": "-84.3492318",
        "lat": "33.744198",
        "address": "1955 Moreland Ave SE Atlanta GA 30316"
    },
    {
        "name": "Moreland Texaco NO",
        "lon": "-84.34969556162328",
        "lat": "33.7527946",
        "address": "29 Moreland Ave SE Atlanta GA 30316"
    },
    {
        "name": "MOZLEY PARK FOODMART",
        "lon": "-84.44345831615702",
        "lat": "33.750924600000005",
        "address": "1720 Martin Luther King Jr Dr SW Atlanta GA 30314"
    },
    {
        "name": "N Food Mart",
        "lon": "-84.45426815",
        "lat": "33.70814805",
        "address": "1985 Campbellton Rd Sw Atlanta GA 30311"
    },
    {
        "name": "NATURE\u2019S OWN HERB SHOP 1",
        "lon": "-84.3966279",
        "lat": "33.6530891",
        "address": "628 S Central Ave Atlanta GA 30354"
    },
    {
        "name": "Neighborhood Discount Grocery",
        "lon": "-84.45644839919122",
        "lat": "33.700371149999995",
        "address": "2070 Alison Ct SW Atlanta GA 30311"
    },
    {
        "name": "Neighborhood Foodmart no",
        "lon": "-84.49202624391509",
        "lat": "33.64030345",
        "address": "4221 Washington Rd Atlanta GA 30344"
    },
    {
        "name": "Neighborhood Grocery",
        "lon": "-84.40886360733504",
        "lat": "33.6648132",
        "address": "3279 Dogwood Dr Atlanta GA 30354"
    },
    {
        "name": "North Avenue Corner Store",
        "lon": "-84.41138045405572",
        "lat": "33.77016335",
        "address": "733 North Ave NW Atlanta GA 30318"
    },
    {
        "name": "North Avenue Food Mart",
        "lon": "-84.371684",
        "lat": "33.771048",
        "address": "605 Boulevard NE Atlanta GA 30308"
    },
    {
        "name": "North Spring Shell",
        "lon": "-84.381014",
        "lat": "33.8735021",
        "address": "7325 Roswell Rd Ne Atlanta GA 30328"
    },
    {
        "name": "NORTHSIDE DR FOOD MART 126",
        "lon": "-84.40274799587213",
        "lat": "33.751893643946964",
        "address": "74 Northside Dr SW Atlanta GA 30313"
    },
    {
        "name": "Northside Food Mart 141",
        "lon": "-84.4050677021109",
        "lat": "33.76960055",
        "address": "548 Northside Dr NW Atlanta GA 30318"
    },
    {
        "name": "Northside Texaco",
        "lon": "-84.40636857142857",
        "lat": "33.74633771428571",
        "address": "296 Northside Dr SW Atlanta GA 30313"
    },
    {
        "name": "Norwood Food Mart",
        "lon": "-84.36085562524443",
        "lat": "33.69717745",
        "address": "878 Norwood Rd SE Atlanta GA 30315"
    },
    {
        "name": "Old Fourth Ward Farmers\u2019 Market Llc",
        "lon": "-84.36744584632636",
        "lat": "33.77078075",
        "address": "621 North Avenue Ne Atlanta GA 30308"
    },
    {
        "name": "Ooche Food Mart",
        "lon": "-84.4262091435057",
        "lat": "33.80075393240659",
        "address": "1176 Chattahoochee Ave Nw Atlanta GA 30318"
    },
    {
        "name": "Panpaleta, Inc.",
        "lon": "-84.3556049",
        "lat": "33.8243995",
        "address": "3307 Buford Highway Atlanta GA 30047"
    },
    {
        "name": "Papi Grocery & Deli Llc",
        "lon": "-84.39844965",
        "lat": "33.73797825",
        "address": "322 Glenn St Sw Atlanta GA 30312"
    },
    {
        "name": "Peach Express 2",
        "lon": "-84.52815824334184",
        "lat": "33.60892825",
        "address": "4285 Roosevelt Hwy Atlanta GA 30349"
    },
    {
        "name": "Peach Pantry",
        "lon": "-84.423748",
        "lat": "33.7102562",
        "address": "1085 Katherwood Dr Sw Atlanta GA 30310"
    },
    {
        "name": "Peachtree Newsstand",
        "lon": "-84.38998586470132",
        "lat": "33.75551313606193",
        "address": "8 Walton St Nw Atlanta GA 30303"
    },
    {
        "name": "PEACHTREE ROAD FARMERS MARKET",
        "lon": "-84.3874599",
        "lat": "33.8279884",
        "address": "2744 Peachtree Rd Atlanta GA 30305"
    },
    {
        "name": "Pic N Pay",
        "lon": "-84.446005",
        "lat": "33.774312",
        "address": "2621 Donald Lee Hollowell Pkwy Nw Atlanta GA 30318"
    },
    {
        "name": "Pick N Pay",
        "lon": "-84.43319257894737",
        "lat": "33.763629421052634",
        "address": "1388 Joseph E Boone Blvd NW Atlanta GA 30314"
    },
    {
        "name": "Planting Seeds Urban Garden",
        "lon": "-84.40894239655172",
        "lat": "33.76566889655172",
        "address": "398 Elm St Nw Atlanta GA 30314"
    },
    {
        "name": "Plaster Shell & Food",
        "lon": "-84.37220196915852",
        "lat": "33.81161371840064",
        "address": "496 Plasters Ave NE Atlanta GA 30324"
    },
    {
        "name": "Polar Rock Lakewood Grocery",
        "lon": "-84.3984884",
        "lat": "33.69695445",
        "address": "2428 Lakewood Ave Sw Atlanta GA 30315"
    },
    {
        "name": "POLY-PLEX PHARMACY",
        "lon": "-84.446005",
        "lat": "33.774312",
        "address": "2596 Donald Lee Hollowell Pkwy NW Atlanta GA 30318"
    },
    {
        "name": "Prime Chevron",
        "lon": "-84.50857220560414",
        "lat": "33.762157599999995",
        "address": "3660 Martin Luther King Jr Dr SW Atlanta GA 30331"
    },
    {
        "name": "Pure Food Mart",
        "lon": "-84.37250998350612",
        "lat": "33.67212175",
        "address": "3015 Jonesboro Rd SE Atlanta GA 30354"
    },
    {
        "name": "Purnima Bangladeshi Grocery",
        "lon": "-84.3651347",
        "lat": "33.8140132",
        "address": "4646 Buford Hwy Atlanta GA 30341"
    },
    {
        "name": "Pyramid Grocery",
        "lon": "-84.40214531385263",
        "lat": "33.732378049999994",
        "address": "825 McDaniel St SW Atlanta GA 30310"
    },
    {
        "name": "Quality Meat Market",
        "lon": "-84.4181487",
        "lat": "33.7264481",
        "address": "2034 Sylvan Rd Sw Atlanta GA 30310"
    },
    {
        "name": "Right Stuff Food Mart",
        "lon": "-84.446005",
        "lat": "33.774312",
        "address": "2656 Donald Lee Hollowell Pkwy Nw Atlanta GA 30318"
    },
    {
        "name": "Riverside Chevron NO",
        "lon": "-84.502602",
        "lat": "33.776107",
        "address": "2020 Bolton Rd Nw Atlanta GA 30318"
    },
    {
        "name": "Robert Wilson\u2019s Car Care.",
        "lon": "-84.4709862",
        "lat": "33.6006213",
        "address": "5690 Old National Hwy Atlanta GA 30349"
    },
    {
        "name": "Roswell Food Mart",
        "lon": "-84.381014",
        "lat": "33.8735021",
        "address": "5345 Roswell Rd Atlanta GA 30342"
    },
    {
        "name": "ROSWELL FOODMART",
        "lon": "-84.381014",
        "lat": "33.8735021",
        "address": "4968 Roswell Rd Atlanta GA 30342"
    },
    {
        "name": "Rsr Grocery",
        "lon": "-84.47120789686997",
        "lat": "33.790274249999996",
        "address": "2535 Center St NW Atlanta GA 30318"
    },
    {
        "name": "S.S. FOOD MART",
        "lon": "-84.4251963",
        "lat": "33.7182043",
        "address": "4511 Campbellton Rd SW Atlanta GA 30331"
    },
    {
        "name": "S&d Business Llc",
        "lon": "-84.46920015",
        "lat": "33.813296300000005",
        "address": "2102 Hollywood Rd NW Atlanta GA 30318"
    },
    {
        "name": "SANDY SPRINGS CHEVRON",
        "lon": "-84.381014",
        "lat": "33.8735021",
        "address": "5701 Roswell Rd Atlanta GA 30342"
    },
    {
        "name": "Sawaneh Imports Llc",
        "lon": "-84.47194435475856",
        "lat": "33.6069907",
        "address": "5459 Old National Hwy Atlanta GA 30349"
    },
    {
        "name": "SCANDINAVIAN HOUSE GROCERY",
        "lon": "-84.38539005063137",
        "lat": "33.774070550000005",
        "address": "710 Peachtree St NE Atlanta GA 30308"
    },
    {
        "name": "Sevananda Inc",
        "lon": "-84.34850134608432",
        "lat": "33.767032799999996",
        "address": "467 Moreland Ave NE Atlanta GA 30307"
    },
    {
        "name": "SHOP RITE FOOD MART",
        "lon": "-84.45833107030387",
        "lat": "33.705736200000004",
        "address": "2132 Campbellton Rd SW Atlanta GA 30311"
    },
    {
        "name": "SHOPPERS MARKET",
        "lon": "-84.3985558",
        "lat": "33.7633953",
        "address": "735 Simpson St NW Atlanta GA 30314"
    },
    {
        "name": "Simply Produce",
        "lon": "-84.50064140327422",
        "lat": "33.62246195",
        "address": "3375 Roosevelt Hwy Atlanta GA 30349"
    },
    {
        "name": "SOUTHEASTERN MEATS & FISH",
        "lon": "-84.446005",
        "lat": "33.774312",
        "address": "1624 Donald Lee Hollowell Pkwy NW Atlanta GA 30318"
    },
    {
        "name": "Southwest Outdoor Organic Market",
        "lon": "-84.4295552",
        "lat": "33.7337376",
        "address": "779 Atwood St SW Atlanta GA 30310"
    },
    {
        "name": "SS Factory Dv, Inc",
        "lon": "-84.3770592",
        "lat": "33.8404347",
        "address": "6035 Peachtree Rd Atlanta GA 30360"
    },
    {
        "name": "STADIUM GROCERY & MORE",
        "lon": "-84.3882375",
        "lat": "33.7218441",
        "address": "834 Hank Aaron Dr SE Atlanta GA 30315"
    },
    {
        "name": "Starz Mini Mart",
        "lon": "-84.38404182285464",
        "lat": "33.754671349999995",
        "address": "138 Edgewood Ave NE Atlanta GA 30303"
    },
    {
        "name": "Summer Hill Variety Store",
        "lon": "-84.38424365227088",
        "lat": "33.73933505",
        "address": "559 Martin St SE Atlanta GA 30312"
    },
    {
        "name": "Sunshines Seafood Market",
        "lon": "-84.45771729072916",
        "lat": "33.705829050000006",
        "address": "1801 Delowe Dr SW Atlanta GA 30311"
    },
    {
        "name": "Super Food Mart",
        "lon": "-84.4289845",
        "lat": "33.7636774",
        "address": "1267 Joseph E Boone Blvd NW Atlanta GA 30314"
    },
    {
        "name": "Super Giant Food",
        "lon": "-84.4567156923077",
        "lat": "33.70663223076923",
        "address": "2080 Campbellton Rd SW Atlanta GA 30311"
    },
    {
        "name": "Super Meat Market",
        "lon": "-84.43750790909091",
        "lat": "33.763484878787885",
        "address": "1590 Joseph E Boone Blvd NW Atlanta GA 30314"
    },
    {
        "name": "Super Thrift Food Store",
        "lon": "-84.4562227",
        "lat": "33.7637712",
        "address": "2079 Joseph E Boone Blvd NW Atlanta GA 30314"
    },
    {
        "name": "SWEET AUBURN GROCERY",
        "lon": "-84.38113343333333",
        "lat": "33.75562806666667",
        "address": "200 Auburn Ave NE Atlanta GA 30303"
    },
    {
        "name": "Sylvan Station Inc",
        "lon": "-84.4178901875",
        "lat": "33.697155468750005",
        "address": "3040 Lakewood Ave SW Atlanta GA 30310"
    },
    {
        "name": "TANNER\u2019S CORNER GROCERY STORE",
        "lon": "-84.35978223529412",
        "lat": "33.70926323529412",
        "address": "828 McDonough Blvd SE Atlanta GA 30315"
    },
    {
        "name": "The Establishment 1",
        "lon": "-84.48702583292949",
        "lat": "33.749767399999996",
        "address": "3050 Martin Luther King Jr Dr SW Atlanta GA 30311"
    },
    {
        "name": "The Establishment 2",
        "lon": "-84.5048",
        "lat": "33.759145",
        "address": "3565 Martin Luther King Jr Dr SW Atlanta GA 30331"
    },
    {
        "name": "The Kosher Gourmet",
        "lon": "-84.3434747",
        "lat": "33.7821009",
        "address": "2153 Briarcliff Rd NE Atlanta GA 30329"
    },
    {
        "name": "TIENDA Y CARNICERIA SANTA CRUZ",
        "lon": "-84.3966279",
        "lat": "33.6530891",
        "address": "421 N Central Ave Atlanta GA 30354"
    },
    {
        "name": "Town & Country",
        "lon": "-84.5232667700688",
        "lat": "33.66435715",
        "address": "3391 Fairburn Rd Sw Atlanta GA 30331"
    },
    {
        "name": "Truly Living Well Center For Natural",
        "lon": "-84.3764888",
        "lat": "33.756595257142855",
        "address": "75 Hilliard St NE Atlanta GA 30312"
    },
    {
        "name": "Truly Living Well Natural Urban Farms",
        "lon": "-84.46797758137036",
        "lat": "33.664434650000004",
        "address": "3353 Washington Rd Atlanta GA 30344"
    },
    {
        "name": "University Exxon",
        "lon": "-84.409593",
        "lat": "33.72219",
        "address": "180 University Ave SW Atlanta GA 30315"
    },
    {
        "name": "Veronica Watson Farm",
        "lon": "-84.41484890923655",
        "lat": "33.714724700000005",
        "address": "1470 Fairbanks St SW Atlanta GA 30310"
    },
    {
        "name": "Walton Food Mart",
        "lon": "-84.39057460337507",
        "lat": "33.756336554443266",
        "address": "64 Walton St NW Atlanta GA 30303"
    },
    {
        "name": "What-u-like Seafood Market",
        "lon": "-84.4181487",
        "lat": "33.7264481",
        "address": "1996 Sylvan Rd SW Atlanta GA 30310"
    },
    {
        "name": "Windsor Food Inc",
        "lon": "-84.39810295766472",
        "lat": "33.74232798347603",
        "address": "464 Windsor St SW Atlanta GA 30312"
    },
    {
        "name": "Winston Grocery",
        "lon": "-84.40541784999999",
        "lat": "33.732065750000004",
        "address": "543 Rockwell St SW Atlanta GA 30310"
    },
    {
        "name": "Yarmil Grocery",
        "lon": "-84.4127757003239",
        "lat": "33.7683434",
        "address": "500 James P Brawley Dr NW Atlanta GA 30318"
    },
    {
        "name": "YOUR BUYING CLUB",
        "lon": "-84.47777327272728",
        "lat": "33.77519535353535",
        "address": "2787 Seaborn Rd NW Atlanta GA 30318"
    },
    {
        "name": "Z Market Plus",
        "lon": "-84.34881795453967",
        "lat": "33.7348157",
        "address": "714 Moreland Ave SE Atlanta GA 30316"
    },
    {
        "name": "ZTS Food Mart",
        "lon": "-84.48828320776066",
        "lat": "33.7510428",
        "address": "3102 Martin Luther King Jr Dr SW Atlanta GA 30311"
    }
]